[
    {
        "name": "Stirling",
        "lat": "56.1181242",
        "lng": "-3.9360012",
        "r": "10",
        "woeid": 21125
    },
    {
        "name": "Devon",
        "lat": "50.724165",
        "lng": "-3.660796",
        "r": "10",
        "woeid": 32185
    },
    {
        "name": "Dorset",
        "lat": "50.796837",
        "lng": "-2.344732",
        "r": "10",
        "woeid": 13383
    },
    {
        "name": "Suffolk",
        "lat": "52.2410014",
        "lng": "1.046683",
        "r": "10",
        "woeid": 44418
    },
    {
        "name": "Nottingham",
        "lat": "53.1459288",
        "lng": "-1.0214971",
        "r": "10",
        "woeid": 30720
    },
    {
        "name": "East Riding of Yorkshire",
        "lat": "53.873597",
        "lng": "-0.534779",
        "r": "10",
        "woeid": 25211
    },
    {
        "name": "Lincolnshire",
        "lat": "53.182303",
        "lng": "-0.203121",
        "r": "10",
        "woeid": 25211
    },
    {
        "name": "Norfolk",
        "lat": "52.666667",
        "lng": "1",
        "r": "10",
        "woeid": 26062
    },
    {
        "name": "Buckinghamshire",
        "lat": "51.783499",
        "lng": "-0.894644",
        "r": "10",
        "woeid": 44418
    },
    {
        "name": "Hertfordshire",
        "lat": "51.840052",
        "lng": "-0.097855",
        "r": "10",
        "woeid": 44418
    },
    {
        "name": "Surrey",
        "lat": "51.2715316",
        "lng": "-0.3414524",
        "r": "10",
        "woeid": 44418
    },
    {
        "name": "Kent",
        "lat": "51.207075",
        "lng": "0.721036",
        "r": "10",
        "woeid": 44418
    },
    {
        "name": "East Sussex",
        "lat": "50.940427",
        "lng": "0.369998",
        "r": "10",
        "woeid": 13911
    },
    {
        "name": "Oxfordshire",
        "lat": "51.833333",
        "lng": "-1.25",
        "r": "10",
        "woeid": 17044
    },
    {
        "name": "Berkshire",
        "lat": "51.453489",
        "lng": "-1.031873",
        "r": "10",
        "woeid": 44418
    },
    {
        "name": "Hampshire",
        "lat": "51.044836",
        "lng": "-1.243409",
        "r": "10",
        "woeid": 32452
    },
    {
        "name": "Herefordshire",
        "lat": "52.083333",
        "lng": "-2.75",
        "r": "10",
        "woeid": 13963
    },
    {
        "name": "Cornwall",
        "lat": "50.416667",
        "lng": "-4.75",
        "r": "10",
        "woeid": 32185
    },
    {
        "name": "Gwynedd",
        "lat": "52.9089585",
        "lng": "-3.8335244",
        "r": "10",
        "woeid": 26734
    },
    {
        "name": "Shropshire",
        "lat": "52.6523393",
        "lng": "-2.7958679",
        "r": "10",
        "woeid": 36240
    },
    {
        "name": "Clwyd",
        "lat": "53.10979",
        "lng": "-3.367128",
        "r": "10",
        "woeid": 26734
    },
    {
        "name": "Dumfries",
        "lat": "55.069836",
        "lng": "-3.6092292",
        "r": "10",
        "woeid": 21125
    },
    {
        "name": "Aberdeen",
        "lat": "57.1482429",
        "lng": "-2.0928095",
        "r": "10",
        "woeid": 19344
    },
    {
        "name": "Inverness",
        "lat": "57.4790124",
        "lng": "-4.225739",
        "r": "10",
        "woeid": 21125
    },
    {
        "name": "Londonderry",
        "lat": "54.9978678",
        "lng": "-7.3213056",
        "r": "10",
        "woeid": 44544
    },
    {
        "name": "Fermanagh",
        "lat": "54.3618747",
        "lng": "-7.6567106",
        "r": "10",
        "woeid": 23424803
    },
    {
        "name": "Melrose",
        "lat": "55.5975944",
        "lng": "-2.7199682",
        "r": "10",
        "woeid": 19344
    },
    {
        "name": "Western Isles",
        "lat": "57.666667",
        "lng": "-7.166667",
        "r": "10",
        "woeid": 21125
    },
    {
        "name": "Antrim",
        "lat": "54.5742432",
        "lng": "-6.9481599",
        "r": "10",
        "woeid": 44544
    },
    {
        "name": "Isle of Wight",
        "lat": "50.671048",
        "lng": "-1.332711",
        "r": "10",
        "woeid": 32452
    },
    {
        "name": "Armagh",
        "lat": "54.348198",
        "lng": "-6.6540432",
        "r": "10",
        "woeid": 44544
    },
    {
        "name": "St Andrews",
        "lat": "56.3403902",
        "lng": "-2.7955844",
        "r": "10",
        "woeid": 19344
    },
    {
        "name": "Down",
        "lat": "54.327934",
        "lng": "-5.71649",
        "r": "10",
        "woeid": 44544
    },
    {
        "name": "Edinburgh",
        "lat": "55.953346",
        "lng": "-3.188375",
        "r": "10",
        "woeid": 19344
    },
    {
        "name": "Gwent",
        "lat": "51.6666717",
        "lng": "-3.000007",
        "r": "10",
        "woeid": 15127
    },
    {
        "name": "Ayr",
        "lat": "55.4628044",
        "lng": "-4.6302502",
        "r": "10",
        "woeid": 21125
    },
    {
        "name": "Dyfed",
        "lat": "52.414311",
        "lng": "-4.081685",
        "r": "10",
        "woeid": 36758
    },
    {
        "name": "Glamorgan",
        "lat": "51.4470646",
        "lng": "-3.39888314",
        "r": "10",
        "woeid": 15127
    },
    {
        "name": "Worcestershire",
        "lat": "52.21095",
        "lng": "-2.156955",
        "r": "10",
        "woeid": 12723
    },
    {
        "name": "Powys",
        "lat": "52.32715",
        "lng": "-3.355335",
        "r": "10",
        "woeid": 36758
    },
    {
        "name": "North Yorkshire",
        "lat": "54.1345327",
        "lng": "-1.4986285",
        "r": "10",
        "woeid": 26042
    },
    {
        "name": "Lancashire",
        "lat": "53.86117",
        "lng": "-2.565089",
        "r": "10",
        "woeid": 32566
    },
    {
        "name": "London",
        "lat": "51.489334",
        "lng": "-0.144055",
        "r": "10",
        "woeid": 44418
    },
    {
        "name": "Essex",
        "lat": "51.770468",
        "lng": "0.46467",
        "r": "10",
        "woeid": 44418
    },
    {
        "name": "West Midlands",
        "lat": "52.5050033",
        "lng": "-1.9643961",
        "r": "10",
        "woeid": 12723
    },
    {
        "name": "Staffordshire",
        "lat": "52.8246942",
        "lng": "-2.0074547",
        "r": "10",
        "woeid": 36240
    },
    {
        "name": "Warwickshire",
        "lat": "52.3213064",
        "lng": "-1.5536906",
        "r": "10",
        "woeid": 17044
    },
    {
        "name": "Northamptonshire",
        "lat": "52.25",
        "lng": "-0.833333",
        "r": "10",
        "woeid": 26062
    },
    {
        "name": "Leicestershire",
        "lat": "52.684914",
        "lng": "-1.184765",
        "r": "10",
        "woeid": 26062
    },
    {
        "name": "Derbyshire",
        "lat": "53.118503",
        "lng": "-1.556618",
        "r": "10",
        "woeid": 18114
    },
    {
        "name": "South Yorkshire",
        "lat": "53.4815333",
        "lng": "-1.3810422",
        "r": "10",
        "woeid": 34503
    },
    {
        "name": "Manchester",
        "lat": "53.506525",
        "lng": "-2.33744",
        "r": "10",
        "woeid": 28218
    },
    {
        "name": "Cheshire",
        "lat": "53.214103",
        "lng": "-2.47177",
        "r": "10",
        "woeid": 36240
    },
    {
        "name": "Merseyside",
        "lat": "53.49536",
        "lng": "-2.973938",
        "r": "10",
        "woeid": 26734
    },
    {
        "name": "Cumbria",
        "lat": "54.614314",
        "lng": "-2.94209",
        "r": "10",
        "woeid": 23424975
    },
    {
        "name": "Northumbria",
        "lat": "55.25",
        "lng": "-2.000559",
        "r": "10",
        "woeid": 30079
    },
    {
        "name": "Tyne and Wear",
        "lat": "54.939177",
        "lng": "-1.594871",
        "r": "10",
        "woeid": 30079
    },
    {
        "name": "Durham",
        "lat": "54.666667",
        "lng": "-1.75",
        "r": "10",
        "woeid": 28869
    },
    {
        "name": "Bristol",
        "lat": "51.453802",
        "lng": "-2.597298",
        "r": "10",
        "woeid": 13963
    },
    {
        "name": "Wiltshire",
        "lat": "51.324162",
        "lng": "-1.9032487",
        "r": "10",
        "woeid": 13963
    },
    {
        "name": "Somerset",
        "lat": "51.1617509",
        "lng": "-3.0753867",
        "r": "10",
        "woeid": 15127
    },
    {
        "name": "West Sussex",
        "lat": "50.9445845",
        "lng": "-0.5278477",
        "r": "10",
        "woeid": 13911
    },
    {
        "name": "Gloucestershire",
        "lat": " 51.833331",
        "lng": "-2.166667",
        "r": "10",
        "woeid": 13963
    },
    {
        "name": "Tyrone",
        "lat": "54.599249",
        "lng": "-7.3029907",
        "r": "10",
        "woeid": 44544
    },
    {
        "name": "Bedfordshire",
        "lat": "52.064003",
        "lng": "-0.4111138",
        "r": "10",
        "woeid": 44418
    },
    {
        "name": "Cambridgeshire",
        "lat": "52.333333",
        "lng": "0.083333",
        "r": "10",
        "woeid": 26062
    }
]